[
	{
		"name": "Yogisthan",
		"address": "89, 11th Cross Road, 60 Feet Road, Stage, Near BDA Complex, Indiranagar, Stage 1, Bengaluru, Karnataka 560038",
		"location": {
			"lat": "12.981103",
			"lng": "77.638372"
		}
	},
	{
		"name": "Lavonne",
		"address": "#263, 3rd Cross Rd, 2nd Stage, 2nd Phase, Domlur, Bengaluru, Karnataka 560071",
		"location": {
			"lat": "12.966579",
			"lng": "77.636711"
		}
	},
	{
		"name": "The Ants Cafe",
		"address": "2286, 1st Cross, 14 A Main, Hal 2nd Stage, Indira Nagar, Bengaluru, Karnataka 560008",
		"location": {
			"lat": "12.967181",
			"lng": "77.642205"
		}
	},
	{
		"name": "Sri Udupi Park",
		"address": "100 Feet Rd, Stage 3, Indiranagar, Bengaluru, Karnataka 560038",
		"location": {
			"lat": "12.973616",
			"lng": "77.6409"
		}
	},
	{
		"name": "Creme & Crust",
		"address": "3777, Domlur Service Road, Doopanahalli, Indiranagar, Bengaluru, Karnataka 560038",
		"location": {
			"lat": "12.966928",
			"lng": "77.637232"
		}
	},
	{
		"name": "Big Pitcher",
		"address": "L R Arcade, HAL Old Airport Rd, HAL 2nd Stage, Ward 88, Kodihalli, Bengaluru, Karnataka 560008",
		"location": {
			"lat": "12.960211",
			"lng": "77.646911"
		}
	},
	{
		"name": "380 Down",
		"address": "No. 3, 80 Feet Rd, HAL 3rd Stage, Indiranagar, Bengaluru, Karnataka 560075",
		"location": {
			"lat": "12.975197",
			"lng": "77.647081"
		}
	},
	{
		"name": "The Warehouse",
		"address": "3, 80 Feet Road, Indira Nagar 1st Stage, H Colony, Indiranagar, HAL 3rd Stage, New Tippasandra, Bengaluru, Karnataka 560075",
		"location": {
			"lat": "12.975188",
			"lng": "77.64712"
		}
	}
]